% program   : RTKPOST-EX 2.5.0
% inp file  : D:\navigation 4203\test1.obs
% inp file  : D:\navigation 4203\2025-Nov-10_021730\2025-Nov-10_021730\Output\hksc300c.25o
% inp file  : D:\navigation 4203\test1.nav
% inp file  : D:\navigation 4203\2025-Nov-10_021730\2025-Nov-10_021730\Output\hksc300c.25n
% inp file  : D:\navigation 4203\2025-Nov-10_021730\2025-Nov-10_021730\Output\hksc300c.25g
% inp file  : D:\navigation 4203\2025-Nov-10_021730\2025-Nov-10_021730\Output\hksc300c.25l
% inp file  : D:\navigation 4203\2025-Nov-10_021730\2025-Nov-10_021730\Output\hksc300c.25q
% obs start : 2025/10/27 02:09:14.0 GPST (week2390  94154.0s)
% obs end   : 2025/10/27 02:13:21.0 GPST (week2390  94401.0s)
% pos mode  : DGPS
% freqs     : L1+L2/E5b+L5+L6
% solution  : Forward
% elev mask : 15.0 deg
% dynamics  : on
% tidecorr  :
% ionos opt : Broadcast
% tropo opt : Saastamoinen
% ephemeris : Broadcast
% navi sys  : GPS GLONASS Galileo QZSS BDS
% antenna1  :                       ( 0.0000  0.0000  0.0000)
% antenna2  :                       ( 0.0000  0.0000  0.0000)
% ref pos   :  22.322172077  114.141187965    20.2387
%
% (lat/lon/height=WGS84/ellipsoidal,Q=1:fix,2:float,3:sbas,4:dgps,5:single,6:ppp,ns=# of satellites)
%  GPST                  latitude(deg) longitude(deg)  height(m)   Q  ns   sdn(m)   sde(m)   sdu(m)  sdne(m)  sdeu(m)  sdun(m) age(s)  ratio
2025/10/27 02:09:14.000   22.305660674  114.179990342    21.0237   4  19   1.0099   1.5225   3.0835  -0.2686  -1.2264  -0.8745   0.00    0.0
2025/10/27 02:09:15.000   22.305661173  114.179975952    22.1626   4  19   1.0024   1.3182   2.8342  -0.2149  -0.8574  -0.8634   0.00    0.0
2025/10/27 02:09:16.000   22.305660142  114.179989319    20.6323   4  19   1.0033   1.3194   2.8566  -0.2123  -0.8654  -0.8711   0.00    0.0
2025/10/27 02:09:17.000   22.305670519  114.180025173    23.0200   4  18   0.9994   1.3559   2.8579   0.0851  -0.7866  -0.8420   0.00    0.0
2025/10/27 02:09:18.000   22.305671106  114.180029531    23.6470   4  18   0.9926   1.3424   2.7803   0.0833  -0.7643  -0.8187   0.00    0.0
2025/10/27 02:09:19.000   22.305670066  114.180026492    23.5931   4  18   0.9908   1.3400   2.6971   0.0659  -0.7399  -0.7939   0.00    0.0
2025/10/27 02:09:20.000   22.305671279  114.180021115    24.0410   4  18   0.9724   1.3042   2.6144   0.2396  -0.6520  -0.8103   0.00    0.0
2025/10/27 02:09:21.000   22.305678603  114.180032402    21.8354   4  19   0.9216   1.2248   2.5122  -0.2469  -0.6257  -0.7370   0.00    0.0
2025/10/27 02:09:22.000   22.305676901  114.180037763    21.5744   4  19   0.9204   1.2230   2.4889  -0.2507  -0.6207  -0.7278   0.00    0.0
2025/10/27 02:09:23.000   22.305669185  114.180031805    21.7628   4  19   0.9202   1.2225   2.4865  -0.2519  -0.6199  -0.7274   0.00    0.0
2025/10/27 02:09:24.000   22.305666395  114.180024970    21.9167   4  19   0.9202   1.2224   2.4859  -0.2521  -0.6198  -0.7272   0.00    0.0
2025/10/27 02:09:25.000   22.305665799  114.180025714    21.9559   4  19   0.9203   1.2224   2.4847  -0.2523  -0.6195  -0.7269   0.00    0.0
2025/10/27 02:09:26.000   22.305665101  114.180025612    22.3094   4  19   0.9203   1.2224   2.4838  -0.2525  -0.6192  -0.7267   0.00    0.0
2025/10/27 02:09:27.000   22.305663855  114.180026862    22.1065   4  20   0.9115   1.1849   2.4712  -0.1598  -0.6764  -0.7046   0.00    0.0
2025/10/27 02:09:28.000   22.305663708  114.180028084    21.8349   4  21   0.9080   1.1830   2.4579  -0.1437  -0.6699  -0.7157   0.00    0.0
2025/10/27 02:09:29.000   22.305659078  114.180039654    22.2672   4  21   0.9006   1.1505   2.4452   0.1057  -0.7136  -0.6974   0.00    0.0
2025/10/27 02:09:30.000   22.305658007  114.180041194    22.0682   4  21   0.9004   1.1500   2.4431   0.1083  -0.7158  -0.6960   0.00    0.0
2025/10/27 02:09:31.000   22.305657206  114.180040661    21.7687   4  21   0.9005   1.1497   2.4428   0.1084  -0.7154  -0.6960   0.00    0.0
2025/10/27 02:09:32.000   22.305656882  114.180038631    21.4611   4  21   0.9005   1.1496   2.4426   0.1082  -0.7154  -0.6959   0.00    0.0
2025/10/27 02:09:33.000   22.305656755  114.180037286    21.2661   4  21   0.9006   1.1496   2.4424   0.1078  -0.7154  -0.6959   0.00    0.0
2025/10/27 02:09:34.000   22.305658918  114.180036693    21.0371   4  22   0.8505   1.1416   2.4400  -0.1687  -0.7051  -0.6727   0.00    0.0
2025/10/27 02:09:35.000   22.305658690  114.180036838    21.0260   4  22   0.8500   1.1414   2.4395  -0.1707  -0.7044  -0.6716   0.00    0.0
2025/10/27 02:09:36.000   22.305659915  114.180037985    20.8795   4  22   0.8499   1.1413   2.4394  -0.1713  -0.7045  -0.6718   0.00    0.0
2025/10/27 02:09:37.000   22.305661309  114.180038998    20.5394   4  22   0.8440   1.1044   2.3971  -0.0248  -0.6050  -0.7047   0.00    0.0
2025/10/27 02:09:38.000   22.305661803  114.180039562    20.2457   4  22   0.8440   1.1034   2.3897  -0.0281  -0.5979  -0.7044   0.00    0.0
2025/10/27 02:09:39.000   22.305660188  114.180036936    20.7066   4  22   0.8440   1.1032   2.3895  -0.0258  -0.5984  -0.7042   0.00    0.0
2025/10/27 02:09:40.000   22.305663046  114.180036605    19.7249   4  22   0.8508   1.1330   2.4023  -0.1683  -0.5415  -0.7229   0.00    0.0
2025/10/27 02:09:41.000   22.305662898  114.180036161    19.5177   4  22   0.8510   1.1335   2.4043  -0.1704  -0.5382  -0.7242   0.00    0.0
2025/10/27 02:09:42.000   22.305663655  114.180037044    19.3934   4  22   0.8511   1.1337   2.4042  -0.1708  -0.5387  -0.7241   0.00    0.0
2025/10/27 02:09:43.000   22.305667280  114.180041445    18.6416   4  22   0.8511   1.1337   2.4043  -0.1710  -0.5386  -0.7242   0.00    0.0
2025/10/27 02:09:44.000   22.305666120  114.180045871    17.9618   4  21   0.8705   1.1532   2.4115  -0.2603  -0.5739  -0.7006   0.00    0.0
2025/10/27 02:09:45.000   22.305668841  114.180046757    17.5202   4  21   0.8707   1.1537   2.4129  -0.2615  -0.5764  -0.6997   0.00    0.0
2025/10/27 02:09:46.000   22.305658697  114.180045640    20.1890   4  21   0.8629   1.1216   2.4009  -0.1924  -0.6302  -0.6796   0.00    0.0
2025/10/27 02:09:47.000   22.305660446  114.180049370    20.5888   4  22   0.8446   1.1037   2.3905  -0.0425  -0.6010  -0.7037   0.00    0.0
2025/10/27 02:09:48.000   22.305649484  114.180051242    21.8809   4  22   0.8446   1.1031   2.3890  -0.0377  -0.5986  -0.7045   0.00    0.0
2025/10/27 02:09:49.000   22.305670325  114.180067338    21.7095   4  22   0.8445   1.1030   2.3890  -0.0361  -0.5989  -0.7044   0.00    0.0
2025/10/27 02:09:50.000   22.305677818  114.180063846    19.9418   4  22   0.8415   1.0810   2.3779   0.1220  -0.6405  -0.6910   0.00    0.0
2025/10/27 02:09:51.000   22.305659267  114.180066065    19.7569   4  22   0.8627   1.0734   2.3718  -0.0473  -0.6591  -0.6896   0.00    0.0
2025/10/27 02:09:52.000   22.305644766  114.180051421    21.3337   4  23   0.8132   1.0368   2.4324   0.0458  -0.5861  -0.6083   0.00    0.0
2025/10/27 02:09:53.000   22.305655372  114.180050695    21.9339   4  22   0.8127   1.0729   2.4890   0.0583  -0.6869  -0.6092   0.00    0.0
2025/10/27 02:09:54.000   22.305660954  114.180054217    21.6054   4  23   0.8244   1.0512   2.4751   0.1621  -0.6387  -0.6458   0.00    0.0
2025/10/27 02:09:55.000   22.305660704  114.180045265    23.0118   4  23   0.8246   1.0506   2.4715   0.1620  -0.6342  -0.6466   0.00    0.0
2025/10/27 02:09:56.000   22.305654556  114.180050322    22.8172   4  23   0.8247   1.0506   2.4721   0.1624  -0.6350  -0.6466   0.00    0.0
2025/10/27 02:09:57.000   22.305645062  114.180063630    23.3542   4  23   0.8247   1.0505   2.4727   0.1623  -0.6351  -0.6469   0.00    0.0
2025/10/27 02:09:58.000   22.305645385  114.180060483    25.4779   4  22   0.8271   1.0446   2.4532   0.1498  -0.5749  -0.5955   0.00    0.0
2025/10/27 02:09:59.000   22.305647318  114.180079784    26.1770   4  23   0.8129   1.0359   2.4467   0.0438  -0.5844  -0.6075   0.00    0.0
2025/10/27 02:10:00.000   22.305636740  114.180075670    27.2042   4  23   0.8246   1.0501   2.4683   0.1600  -0.6322  -0.6447   0.00    0.0
2025/10/27 02:10:01.000   22.305642937  114.180065952    25.4648   4  23   0.8248   1.0504   2.4725   0.1615  -0.6355  -0.6470   0.00    0.0
2025/10/27 02:10:02.000   22.305646617  114.180056959    24.7390   4  23   0.8132   1.0361   2.4500   0.0462  -0.5884  -0.6103   0.00    0.0
2025/10/27 02:10:03.000   22.305647333  114.180063889    23.1656   4  23   0.8130   1.0357   2.4459   0.0395  -0.5853  -0.6080   0.00    0.0
2025/10/27 02:10:04.000   22.305646307  114.180074265    22.2911   4  23   0.8247   1.0499   2.4683   0.1590  -0.6324  -0.6447   0.00    0.0
2025/10/27 02:10:05.000   22.305650459  114.180060014    22.0971   4  21   0.8260   1.0503   2.5126   0.1595  -0.6394  -0.6330   0.00    0.0
2025/10/27 02:10:06.000   22.305650025  114.180047586    22.5467   4  16   0.8451   1.1420   2.6096  -0.2061  -0.4051  -0.6707   0.00    0.0
2025/10/27 02:10:07.000   22.305647849  114.180046810    22.0261   4  22   0.8356   1.0987   2.5160  -0.1283  -0.5426  -0.6839   0.00    0.0
2025/10/27 02:10:08.000   22.305650938  114.180058263    21.4477   4  23   0.8255   1.0513   2.4774   0.1583  -0.6339  -0.6495   0.00    0.0
2025/10/27 02:10:09.000   22.305647864  114.180066887    20.0483   4  23   0.8252   1.0506   2.4739   0.1599  -0.6363  -0.6474   0.00    0.0
2025/10/27 02:10:10.000   22.305641397  114.180059944    21.0593   4  23   0.8253   1.0503   2.4743   0.1603  -0.6365  -0.6477   0.00    0.0
2025/10/27 02:10:11.000   22.305635132  114.180038415    22.1128   4  24   0.8123   1.0693   2.5006  -0.1130  -0.4827  -0.6299   0.00    0.0
2025/10/27 02:10:12.000   22.305629695  114.180055166    23.0112   4  23   0.8251   1.0500   2.4776   0.1568  -0.6297  -0.6475   0.00    0.0
2025/10/27 02:10:13.000   22.305629764  114.180038350    25.8952   4  22   0.8525   1.0771   2.5080   0.2767  -0.7110  -0.7131   0.00    0.0
2025/10/27 02:10:14.000   22.305645986  114.180033807    27.7399   4  24   0.8255   1.0391   2.4054   0.1500  -0.5634  -0.6392   0.00    0.0
2025/10/27 02:10:15.000   22.305639335  114.180021219    28.4921   4  24   0.8249   1.0381   2.3874   0.1452  -0.5520  -0.6322   0.00    0.0
2025/10/27 02:10:16.000   22.305630226  114.180019479    26.0022   4  23   0.8253   1.0495   2.4588   0.1578  -0.6301  -0.6441   0.00    0.0
2025/10/27 02:10:17.000   22.305617661  114.180013117    27.3429   4  23   0.8726   1.0469   2.3999   0.2435  -0.5662  -0.6491   0.00    0.0
2025/10/27 02:10:18.000   22.305612998  114.180027496    24.0348   4  24   0.8255   1.0381   2.3862   0.1459  -0.5525  -0.6328   0.00    0.0
2025/10/27 02:10:19.000   22.305622162  114.180050041    19.2492   4  24   0.8252   1.0379   2.3856   0.1446  -0.5525  -0.6320   0.00    0.0
2025/10/27 02:10:20.000   22.305615586  114.180053415    18.2671   4  24   0.8232   1.0050   2.3684   0.1871  -0.6164  -0.6195   0.00    0.0
2025/10/27 02:10:21.000   22.305609953  114.180058963    18.1168   4  24   0.8300   1.0618   2.3953   0.0185  -0.5023  -0.6487   0.00    0.0
2025/10/27 02:10:22.000   22.305609495  114.180044714    21.0304   4  24   0.8252   1.0379   2.3874   0.1422  -0.5497  -0.6332   0.00    0.0
2025/10/27 02:10:23.000   22.305611421  114.180052766    20.7941   4  22   0.8723   1.1322   2.4587  -0.0624  -0.4607  -0.7522   0.00    0.0
2025/10/27 02:10:24.000   22.305607624  114.180052031    19.9220   4  23   0.8431   1.1176   2.4365  -0.2207  -0.3534  -0.6943   0.00    0.0
2025/10/27 02:10:25.000   22.305603643  114.180062454    19.7564   4  25   0.8148   0.9827   2.3564   0.2447  -0.6613  -0.5931   0.00    0.0
2025/10/27 02:10:26.000   22.305609984  114.180034999    19.8898   4  24   0.8115   0.9920   2.3418   0.1140  -0.5805  -0.5809   0.00    0.0
2025/10/27 02:10:27.000   22.305609804  114.180032859    18.8870   4  24   0.8294   1.0276   2.3806   0.2916  -0.6844  -0.6455   0.00    0.0
2025/10/27 02:10:28.000   22.305604988  114.180042142    18.8148   4  25   0.8045   1.0043   2.3578   0.2028  -0.6291  -0.5880   0.00    0.0
2025/10/27 02:10:29.000   22.305601697  114.180039377    18.9335   4  25   0.7637   1.0228   2.3594   0.0997  -0.5815  -0.5722   0.00    0.0
2025/10/27 02:10:30.000   22.305595719  114.180042427    19.7504   4  25   0.7682   1.0294   2.3692  -0.0459  -0.5574  -0.5876   0.00    0.0
2025/10/27 02:10:31.000   22.305590064  114.180043523    20.4176   4  26   0.7526   0.9789   2.3365   0.2158  -0.6622  -0.5334   0.00    0.0
2025/10/27 02:10:32.000   22.305589374  114.180046145    19.9788   4  25   0.7678   1.0289   2.3645  -0.0411  -0.5623  -0.5851   0.00    0.0
2025/10/27 02:10:33.000   22.305583304  114.180041193    19.6168   4  25   0.7598   1.0019   2.3520   0.1559  -0.6159  -0.5595   0.00    0.0
2025/10/27 02:10:34.000   22.305578331  114.180048935    19.7016   4  26   0.7541   0.9803   2.3493   0.2225  -0.6521  -0.5197   0.00    0.0
2025/10/27 02:10:35.000   22.305577930  114.180058195    19.9818   4  26   0.7525   0.9782   2.3333   0.2167  -0.6652  -0.5308   0.00    0.0
2025/10/27 02:10:36.000   22.305597607  114.180077454    18.7124   4  27   0.7435   0.9756   2.3352   0.2472  -0.6372  -0.5459   0.00    0.0
2025/10/27 02:10:37.000   22.305590234  114.180079321    19.3705   4  27   0.7435   0.9754   2.3360   0.2473  -0.6359  -0.5465   0.00    0.0
2025/10/27 02:10:38.000   22.305577312  114.180063201    23.2335   4  27   0.7421   0.9735   2.3205   0.2418  -0.6486  -0.5574   0.00    0.0
2025/10/27 02:10:39.000   22.305586396  114.180083120    21.6789   4  26   0.7632   0.9972   2.3465   0.3114  -0.7070  -0.6130   0.00    0.0
2025/10/27 02:10:40.000   22.305596259  114.180089498    20.9461   4  26   0.7637   0.9979   2.3518   0.3130  -0.7113  -0.6164   0.00    0.0
2025/10/27 02:10:41.000   22.305597771  114.180088312    21.0995   4  27   0.7426   0.9740   2.3229   0.2434  -0.6524  -0.5603   0.00    0.0
2025/10/27 02:10:42.000   22.305596168  114.180100747    20.1224   4  27   0.7563   0.9452   2.2058   0.2533  -0.4956  -0.5413   0.00    0.0
2025/10/27 02:10:43.000   22.305599449  114.180117369    19.1933   4  27   0.7562   0.9444   2.1884   0.2521  -0.4855  -0.5374   0.00    0.0
2025/10/27 02:10:44.000   22.305605674  114.180118717    20.1712   4  27   0.7483   0.9120   2.1009   0.1919  -0.2942  -0.4709   0.00    0.0
2025/10/27 02:10:45.000   22.305607645  114.180121462    20.2895   4  27   0.7481   0.9115   2.0870   0.1902  -0.2820  -0.4661   0.00    0.0
2025/10/27 02:10:46.000   22.305601338  114.180145993    21.9198   4  27   0.7434   0.8834   2.0713   0.2343  -0.3675  -0.4433   0.00    0.0
2025/10/27 02:10:47.000   22.305609592  114.180143271    22.9468   4  27   0.7433   0.8831   2.0682   0.2346  -0.3700  -0.4420   0.00    0.0
2025/10/27 02:10:48.000   22.305614580  114.180144899    22.1539   4  27   0.7433   0.8829   2.0675   0.2346  -0.3698  -0.4420   0.00    0.0
2025/10/27 02:10:49.000   22.305615156  114.180157866    20.4281   4  27   0.7434   0.8829   2.0672   0.2345  -0.3700  -0.4420   0.00    0.0
2025/10/27 02:10:50.000   22.305618910  114.180157326    19.8932   4  27   0.7434   0.8828   2.0671   0.2344  -0.3700  -0.4420   0.00    0.0
2025/10/27 02:10:51.000   22.305618839  114.180156625    23.0016   4  27   0.7433   0.8774   2.0264   0.2319  -0.3120  -0.4366   0.00    0.0
2025/10/27 02:10:52.000   22.305624963  114.180169418    21.5767   4  27   0.7433   0.8773   2.0201   0.2316  -0.3088  -0.4353   0.00    0.0
2025/10/27 02:10:53.000   22.305627713  114.180170629    21.0303   4  27   0.7433   0.8772   2.0200   0.2315  -0.3090  -0.4353   0.00    0.0
2025/10/27 02:10:54.000   22.305634920  114.180178792    21.3416   4  27   0.7433   0.8772   2.0198   0.2314  -0.3090  -0.4353   0.00    0.0
2025/10/27 02:10:55.000   22.305636267  114.180177163    23.8001   4  27   0.7325   0.8769   2.0115   0.2363  -0.3144  -0.4084   0.00    0.0
2025/10/27 02:10:56.000   22.305639755  114.180181336    26.1265   4  26   0.7423   0.8895   2.0167   0.1943  -0.3509  -0.3824   0.00    0.0
2025/10/27 02:10:57.000   22.305650199  114.180180261    25.9161   4  25   0.7333   0.9292   2.1283   0.2578  -0.5344  -0.4313   0.00    0.0
2025/10/27 02:10:58.000   22.305672519  114.180183907    26.3661   4  25   0.7528   0.9423   2.1159   0.3137  -0.5420  -0.4793   0.00    0.0
2025/10/27 02:10:59.000   22.305679251  114.180158187    28.6193   4  26   0.7528   0.9346   2.0649   0.3106  -0.4884  -0.4710   0.00    0.0
2025/10/27 02:11:00.000   22.305684670  114.180165626    28.5434   4  27   0.7517   0.8996   2.0708   0.2935  -0.4291  -0.4603   0.00    0.0
2025/10/27 02:11:01.000   22.305693266  114.180161583    28.0823   4  26   0.7611   0.9055   2.0384   0.2572  -0.4049  -0.4307   0.00    0.0
2025/10/27 02:11:02.000   22.305695562  114.180163825    24.8188   4  26   0.7517   0.8989   2.0678   0.2924  -0.4252  -0.4583   0.00    0.0
2025/10/27 02:11:03.000   22.305706775  114.180173338    24.5886   4  25   0.7531   0.9413   2.1063   0.3133  -0.5352  -0.4782   0.00    0.0
2025/10/27 02:11:04.000   22.305706621  114.180179010    23.5976   4  25   0.7532   0.9421   2.1120   0.3141  -0.5413  -0.4802   0.00    0.0
2025/10/27 02:11:05.000   22.305711769  114.180181622    20.7952   4  25   0.7535   0.9510   2.1630   0.3183  -0.5940  -0.4901   0.00    0.0
2025/10/27 02:11:06.000   22.305722411  114.180191129    19.2103   4  25   0.7546   1.0141   2.2335   0.3402  -0.7353  -0.5132   0.00    0.0
2025/10/27 02:11:07.000   22.305733076  114.180191777    19.3302   4  25   0.7548   1.0160   2.2457   0.3416  -0.7451  -0.5169   0.00    0.0
2025/10/27 02:11:08.000   22.305739773  114.180189828    22.4215   4  25   0.7544   1.0033   2.1858   0.3357  -0.6865  -0.5046   0.00    0.0
2025/10/27 02:11:09.000   22.305741772  114.180179419    26.4146   4  26   0.7540   0.9915   2.1226   0.3300  -0.6265  -0.4914   0.00    0.0
2025/10/27 02:11:10.000   22.305749872  114.180179954    25.0635   4  25   0.7543   1.0021   2.1680   0.3345  -0.6772  -0.5004   0.00    0.0
2025/10/27 02:11:11.000   22.305756592  114.180176239    26.3741   4  26   0.7541   0.9913   2.1229   0.3298  -0.6267  -0.4916   0.00    0.0
2025/10/27 02:11:12.000   22.305763575  114.180193413    23.1783   4  25   0.7543   1.0019   2.1671   0.3343  -0.6767  -0.5003   0.00    0.0
2025/10/27 02:11:13.000   22.305771690  114.180187092    23.9482   4  26   0.7541   0.9911   2.1219   0.3296  -0.6265  -0.4914   0.00    0.0
2025/10/27 02:11:14.000   22.305762597  114.180172557    25.8469   4  26   0.7437   0.9904   2.1053   0.3113  -0.5301  -0.4066   0.00    0.0
2025/10/27 02:11:15.000   22.305767386  114.180180332    24.9469   4  27   0.7338   0.9669   2.0931   0.2664  -0.5667  -0.4334   0.00    0.0
2025/10/27 02:11:16.000   22.305774567  114.180192219    22.5621   4  27   0.7338   0.9667   2.0914   0.2660  -0.5685  -0.4346   0.00    0.0
2025/10/27 02:11:17.000   22.305802073  114.180212629    19.3645   4  26   0.7537   0.9897   2.1099   0.3274  -0.6187  -0.4869   0.00    0.0
2025/10/27 02:11:18.000   22.305802585  114.180213783    17.7628   4  25   0.7745   0.9915   2.1190   0.3149  -0.6285  -0.4596   0.00    0.0
2025/10/27 02:11:19.000   22.305805200  114.180218082    14.5016   4  26   0.7545   1.0015   2.1672   0.3335  -0.6773  -0.4995   0.00    0.0
2025/10/27 02:11:20.000   22.305805005  114.180207131    17.1559   4  26   0.7345   0.9884   2.2101   0.2749  -0.6855  -0.4547   0.00    0.0
2025/10/27 02:11:21.000   22.305814882  114.180195822    20.9252   4  25   0.7453   0.9762   2.2932   0.2424  -0.4830  -0.4600   0.00    0.0
2025/10/27 02:11:22.000   22.305821894  114.180210408    20.0253   4  25   0.7300   0.9636   2.3172   0.2446  -0.5565  -0.3819   0.00    0.0
2025/10/27 02:11:23.000   22.305809346  114.180191643    20.8164   4  26   0.7138   0.9369   2.2449   0.1751  -0.4475  -0.3170   0.00    0.0
2025/10/27 02:11:24.000   22.305807515  114.180195012    18.9883   4  26   0.7179   0.9479   2.2415   0.2046  -0.4702  -0.3370   0.00    0.0
2025/10/27 02:11:25.000   22.305807314  114.180189333    15.9311   4  27   0.7167   0.9459   2.0970   0.1981  -0.5229  -0.3857   0.00    0.0
2025/10/27 02:11:26.000   22.305803336  114.180184878    16.0273   4  27   0.7167   0.9458   2.0756   0.1980  -0.5207  -0.3839   0.00    0.0
2025/10/27 02:11:27.000   22.305799284  114.180180534    17.3459   4  27   0.7167   0.9457   2.0747   0.1978  -0.5203  -0.3836   0.00    0.0
2025/10/27 02:11:28.000   22.305796607  114.180170478    17.2562   4  26   0.7269   0.9533   2.1052   0.1563  -0.4763  -0.4371   0.00    0.0
2025/10/27 02:11:29.000   22.305792153  114.180164524    17.3211   4  26   0.7200   0.9446   2.1255   0.2090  -0.4642  -0.4850   0.00    0.0
2025/10/27 02:11:30.000   22.305786889  114.180160678    17.3231   4  26   0.7200   0.9372   2.0826   0.2051  -0.4056  -0.4800   0.00    0.0
2025/10/27 02:11:31.000   22.305784047  114.180153158    17.3657   4  26   0.7199   0.9370   2.0757   0.2048  -0.4018  -0.4783   0.00    0.0
2025/10/27 02:11:32.000   22.305778581  114.180150313    18.3834   4  26   0.7199   0.9369   2.0759   0.2047  -0.4021  -0.4783   0.00    0.0
2025/10/27 02:11:33.000   22.305771268  114.180141504    19.8468   4  27   0.7091   0.9159   2.0626   0.1323  -0.3401  -0.4472   0.00    0.0
2025/10/27 02:11:34.000   22.305766561  114.180144405    19.8442   4  27   0.7161   0.9175   2.0657   0.1059  -0.3235  -0.4624   0.00    0.0
2025/10/27 02:11:35.000   22.305763821  114.180136732    19.9280   4  27   0.7162   0.9174   2.0664   0.1052  -0.3232  -0.4632   0.00    0.0
2025/10/27 02:11:36.000   22.305753449  114.180140960    20.9712   4  26   0.7224   0.9515   2.0822  -0.1129  -0.1989  -0.4885   0.00    0.0
2025/10/27 02:11:37.000   22.305743081  114.180140763    21.5418   4  26   0.7224   0.9127   2.0643  -0.1296   0.2063  -0.4860   0.00    0.0
2025/10/27 02:11:38.000   22.305736733  114.180136244    22.5364   4  27   0.7161   0.8808   2.0426   0.0749  -0.1414  -0.4573   0.00    0.0
2025/10/27 02:11:39.000   22.305738487  114.180123944    21.4935   4  26   0.7223   0.9117   2.0581  -0.1292   0.2053  -0.4836   0.00    0.0
2025/10/27 02:11:40.000   22.305722112  114.180115180    25.4516   4  27   0.7354   0.9012   2.0776  -0.2195   0.4331  -0.5326   0.00    0.0
2025/10/27 02:11:41.000   22.305717883  114.180115286    25.5595   4  28   0.7275   0.8678   2.0544  -0.1493   0.3376  -0.5002   0.00    0.0
2025/10/27 02:11:42.000   22.305718573  114.180117760    23.4393   4  28   0.7274   0.8672   2.0504  -0.1481   0.3316  -0.4980   0.00    0.0
2025/10/27 02:11:43.000   22.305708871  114.180114306    23.8761   4  28   0.7274   0.8671   2.0505  -0.1481   0.3322  -0.4982   0.00    0.0
2025/10/27 02:11:44.000   22.305701169  114.180105585    23.2708   4  27   0.7356   0.9006   2.0762  -0.2204   0.4350  -0.5326   0.00    0.0
2025/10/27 02:11:45.000   22.305698444  114.180103128    23.1372   4  27   0.7358   0.9011   2.0804  -0.2218   0.4400  -0.5348   0.00    0.0
2025/10/27 02:11:46.000   22.305694004  114.180094628    23.4695   4  29   0.7158   0.8531   2.0195  -0.0438   0.2323  -0.4478   0.00    0.0
2025/10/27 02:11:47.000   22.305688289  114.180089756    23.3244   4  28   0.7339   0.8627   2.0115  -0.1512   0.2372  -0.4541   0.00    0.0
2025/10/27 02:11:48.000   22.305681917  114.180080008    23.7822   4  27   0.7367   0.8890   2.0895  -0.0982  -0.2542  -0.4917   0.00    0.0
2025/10/27 02:11:49.000   22.305676275  114.180085529    20.1864   4  28   0.7342   0.8628   2.0231  -0.1511   0.2286  -0.4577   0.00    0.0
2025/10/27 02:11:50.000   22.305670008  114.180088435    18.9736   4  28   0.7341   0.8627   2.0111  -0.1521   0.2390  -0.4544   0.00    0.0
2025/10/27 02:11:51.000   22.305661894  114.180077679    17.5696   4  28   0.7342   0.8625   2.0113  -0.1522   0.2378  -0.4544   0.00    0.0
2025/10/27 02:11:52.000   22.305643495  114.180049466    20.2990   4  28   0.7187   0.8785   2.0886   0.1104  -0.2668  -0.4835   0.00    0.0
2025/10/27 02:11:53.000   22.305630211  114.180047987    23.2775   4  27   0.7285   0.9031   2.1173  -0.1093  -0.1580  -0.5175   0.00    0.0
2025/10/27 02:11:54.000   22.305616791  114.180071354    27.9152   4  27   0.7287   0.9035   2.1201  -0.1108  -0.1479  -0.5191   0.00    0.0
2025/10/27 02:11:55.000   22.305593980  114.180078772    30.1597   4  25   0.7889   0.9220   2.1432  -0.2528  -0.2077  -0.4534   0.00    0.0
2025/10/27 02:11:56.000   22.305594449  114.180059512    28.0813   4  24   0.7947   0.9666   2.1770  -0.2577   0.2405  -0.6340   0.00    0.0
2025/10/27 02:11:57.000   22.305597008  114.180055867    26.6937   4  25   0.7652   0.9641   2.1572  -0.2912   0.3015  -0.5820   0.00    0.0
2025/10/27 02:11:58.000   22.305591753  114.180045998    24.8894   4  25   0.7647   0.9643   2.1534  -0.2915   0.3018  -0.5782   0.00    0.0
2025/10/27 02:11:59.000   22.305590116  114.180057680    27.6990   4  26   0.7563   0.9063   2.1428  -0.1619  -0.2371  -0.4265   0.00    0.0
2025/10/27 02:12:00.000   22.305586263  114.180054598    28.4545   4  25   0.7744   0.9443   2.1674  -0.2537   0.1529  -0.4791   0.00    0.0
2025/10/27 02:12:01.000   22.305595115  114.180057116    29.7103   4  26   0.7351   0.9240   2.1470   0.0661   0.1795  -0.4949   0.00    0.0
2025/10/27 02:12:02.000   22.305601156  114.180041058    26.9232   4  25   0.7435   0.9532   2.1570   0.1174   0.1732  -0.5204   0.00    0.0
2025/10/27 02:12:03.000   22.305597775  114.180044093    24.7162   4  24   0.7497   1.0020   2.1901  -0.1242   0.3779  -0.5545   0.00    0.0
2025/10/27 02:12:04.000   22.305599620  114.180038520    24.2630   4  25   0.7355   0.9460   2.1540  -0.0156   0.2493  -0.5010   0.00    0.0
2025/10/27 02:12:05.000   22.305602076  114.180066454    26.2804   4  26   0.7215   0.9214   2.1218  -0.1047  -0.1025  -0.5038   0.00    0.0
2025/10/27 02:12:06.000   22.305600833  114.180059599    24.6246   4  28   0.7199   0.8650   2.0538  -0.1252   0.3086  -0.4807   0.00    0.0
2025/10/27 02:12:07.000   22.305604658  114.180039532    20.9619   4  29   0.7127   0.8577   2.0160   0.1096   0.1618  -0.4396   0.00    0.0
2025/10/27 02:12:08.000   22.305599890  114.180047825    19.0397   4  29   0.7126   0.8573   2.0112   0.1111   0.1510  -0.4375   0.00    0.0
2025/10/27 02:12:09.000   22.305594581  114.180057639    18.4724   4  29   0.7126   0.8572   2.0104   0.1113   0.1523  -0.4374   0.00    0.0
2025/10/27 02:12:10.000   22.305591257  114.180061265    19.3671   4  29   0.7126   0.8572   2.0097   0.1112   0.1516  -0.4372   0.00    0.0
2025/10/27 02:12:11.000   22.305590701  114.180058155    19.5111   4  29   0.7129   0.8702   2.0159   0.0947   0.2177  -0.4413   0.00    0.0
2025/10/27 02:12:12.000   22.305589889  114.180068761    19.3818   4  29   0.7033   0.8575   1.9876   0.1620  -0.0488  -0.3936   0.00    0.0
2025/10/27 02:12:13.000   22.305587302  114.180084947    20.1558   4  29   0.7056   0.8359   2.0040   0.1764   0.0794  -0.4257   0.00    0.0
2025/10/27 02:12:14.000   22.305591455  114.180089958    20.2177   4  30   0.6947   0.8134   1.9807   0.2316  -0.1767  -0.3861   0.00    0.0
2025/10/27 02:12:15.000   22.305594849  114.180095522    20.2690   4  29   0.7009   0.8206   1.9806   0.2533  -0.2154  -0.3991   0.00    0.0
2025/10/27 02:12:16.000   22.305598022  114.180109626    19.6490   4  28   0.7179   0.8338   1.9923   0.2955  -0.2795  -0.4388   0.00    0.0
2025/10/27 02:12:17.000   22.305600463  114.180117074    19.7942   4  28   0.7181   0.8340   1.9941   0.2961  -0.2822  -0.4405   0.00    0.0
2025/10/27 02:12:18.000   22.305601226  114.180121355    19.5978   4  28   0.7182   0.8340   1.9940   0.2961  -0.2820  -0.4404   0.00    0.0
2025/10/27 02:12:19.000   22.305609805  114.180128903    19.9989   4  28   0.7182   0.8340   1.9941   0.2961  -0.2821  -0.4405   0.00    0.0
2025/10/27 02:12:20.000   22.305611514  114.180135288    20.1547   4  28   0.7182   0.8339   1.9943   0.2960  -0.2821  -0.4405   0.00    0.0
2025/10/27 02:12:21.000   22.305614933  114.180140258    20.3584   4  28   0.7182   0.8339   1.9944   0.2960  -0.2821  -0.4405   0.00    0.0
2025/10/27 02:12:22.000   22.305617672  114.180154273    21.1237   4  28   0.7182   0.8338   1.9945   0.2959  -0.2822  -0.4406   0.00    0.0
2025/10/27 02:12:23.000   22.305619465  114.180160095    21.7721   4  28   0.7182   0.8338   1.9945   0.2959  -0.2822  -0.4406   0.00    0.0
2025/10/27 02:12:24.000   22.305628316  114.180168047    21.4119   4  28   0.7182   0.8337   1.9946   0.2958  -0.2823  -0.4406   0.00    0.0
2025/10/27 02:12:25.000   22.305632802  114.180163802    23.0209   4  27   0.7191   0.8722   2.0177   0.3102  -0.3970  -0.4523   0.00    0.0
2025/10/27 02:12:26.000   22.305636269  114.180167938    23.9806   4  27   0.7191   0.8727   2.0216   0.3107  -0.4021  -0.4537   0.00    0.0
2025/10/27 02:12:27.000   22.305654382  114.180182215    22.8572   4  28   0.7378   0.8496   2.0119   0.3387  -0.3468  -0.4843   0.00    0.0
2025/10/27 02:12:28.000   22.305663504  114.180187816    22.1444   4  27   0.7384   0.8543   2.0501   0.3420  -0.3947  -0.4946   0.00    0.0
2025/10/27 02:12:29.000   22.305675856  114.180189788    22.3829   4  28   0.7381   0.8493   2.0171   0.3391  -0.3478  -0.4866   0.00    0.0
2025/10/27 02:12:30.000   22.305687631  114.180188560    23.8840   4  27   0.7384   0.8541   2.0506   0.3420  -0.3947  -0.4947   0.00    0.0
2025/10/27 02:12:31.000   22.305694734  114.180178801    25.2543   4  27   0.7396   0.8907   2.0435   0.3570  -0.4566  -0.5022   0.00    0.0
2025/10/27 02:12:32.000   22.305698259  114.180179757    24.5673   4  26   0.7401   0.8979   2.0850   0.3614  -0.5067  -0.5134   0.00    0.0
2025/10/27 02:12:33.000   22.305710417  114.180176421    26.4673   4  27   0.7397   0.8914   2.0485   0.3576  -0.4618  -0.5041   0.00    0.0
2025/10/27 02:12:34.000   22.305724888  114.180173905    28.3719   4  27   0.7397   0.8912   2.0421   0.3573  -0.4585  -0.5024   0.00    0.0
2025/10/27 02:12:35.000   22.305729237  114.180184028    26.1153   4  26   0.7402   0.8979   2.0857   0.3613  -0.5069  -0.5137   0.00    0.0
2025/10/27 02:12:36.000   22.305732545  114.180185159    24.1743   4  26   0.7403   0.8981   2.0932   0.3616  -0.5103  -0.5158   0.00    0.0
2025/10/27 02:12:37.000   22.305743417  114.180189758    23.5740   4  27   0.7398   0.8912   2.0493   0.3574  -0.4619  -0.5045   0.00    0.0
2025/10/27 02:12:38.000   22.305750397  114.180185890    24.1370   4  27   0.7397   0.8910   2.0427   0.3571  -0.4587  -0.5028   0.00    0.0
2025/10/27 02:12:39.000   22.305756347  114.180188325    24.7634   4  27   0.7397   0.8909   2.0430   0.3570  -0.4589  -0.5029   0.00    0.0
2025/10/27 02:12:40.000   22.305750129  114.180175001    25.7928   4  25   0.7272   0.8956   2.0828   0.3414  -0.4037  -0.4370   0.00    0.0
2025/10/27 02:12:41.000   22.305753381  114.180165357    28.2792   4  28   0.7020   0.8568   2.0182   0.2654  -0.3510  -0.4120   0.00    0.0
2025/10/27 02:12:42.000   22.305751479  114.180158833    29.5640   4  28   0.7022   0.8992   2.0334   0.2780  -0.4580  -0.4202   0.00    0.0
2025/10/27 02:12:43.000   22.305767130  114.180179626    25.2875   4  26   0.7204   0.9266   2.1004   0.3310  -0.5624  -0.4786   0.00    0.0
2025/10/27 02:12:44.000   22.305781001  114.180186071    22.9845   4  27   0.7204   0.9194   2.0648   0.3281  -0.5194  -0.4727   0.00    0.0
2025/10/27 02:12:45.000   22.305778393  114.180185429    22.5863   4  28   0.7025   0.9002   2.0405   0.2790  -0.4655  -0.4236   0.00    0.0
2025/10/27 02:12:46.000   22.305788817  114.180194410    20.8109   4  27   0.7202   0.9187   2.0550   0.3270  -0.5130  -0.4686   0.00    0.0
2025/10/27 02:12:47.000   22.305790772  114.180188807    21.9347   4  28   0.7025   0.9001   2.0411   0.2788  -0.4658  -0.4238   0.00    0.0
2025/10/27 02:12:48.000   22.305797653  114.180192622    21.8408   4  27   0.7202   0.9186   2.0551   0.3269  -0.5127  -0.4686   0.00    0.0
2025/10/27 02:12:49.000   22.305796943  114.180180176    22.4642   4  28   0.7025   0.9000   2.0406   0.2786  -0.4657  -0.4238   0.00    0.0
2025/10/27 02:12:50.000   22.305804174  114.180190237    19.2485   4  28   0.7023   0.8996   2.0381   0.2779  -0.4626  -0.4214   0.00    0.0
2025/10/27 02:12:51.000   22.305805468  114.180192077    16.6034   4  28   0.7057   0.9014   2.0469   0.2848  -0.4509  -0.4057   0.00    0.0
2025/10/27 02:12:52.000   22.305802223  114.180185015    15.8208   4  28   0.7023   0.8995   2.0395   0.2777  -0.4624  -0.4212   0.00    0.0
2025/10/27 02:12:53.000   22.305797983  114.180174936    16.2597   4  28   0.7023   0.8994   2.0380   0.2777  -0.4628  -0.4216   0.00    0.0
2025/10/27 02:12:54.000   22.305794240  114.180166935    16.7173   4  28   0.7023   0.8994   2.0380   0.2776  -0.4627  -0.4216   0.00    0.0
2025/10/27 02:12:55.000   22.305787393  114.180157990    17.3105   4  28   0.7057   0.9011   2.0469   0.2846  -0.4508  -0.4057   0.00    0.0
2025/10/27 02:12:56.000   22.305785007  114.180157058    17.0073   4  28   0.7023   0.8993   2.0395   0.2775  -0.4623  -0.4213   0.00    0.0
2025/10/27 02:12:57.000   22.305781416  114.180152190    17.1293   4  28   0.7023   0.8992   2.0381   0.2775  -0.4626  -0.4217   0.00    0.0
2025/10/27 02:12:58.000   22.305772444  114.180139355    18.0859   4  29   0.6990   0.8907   2.0408   0.2602  -0.4261  -0.3862   0.00    0.0
2025/10/27 02:12:59.000   22.305768026  114.180134905    18.4335   4  29   0.6956   0.8888   2.0322   0.2525  -0.4368  -0.4016   0.00    0.0
2025/10/27 02:13:00.000   22.305766367  114.180133390    17.8957   4  28   0.7025   0.8926   2.0599   0.2357  -0.4030  -0.4421   0.00    0.0
2025/10/27 02:13:01.000   22.305762072  114.180131622    18.2480   4  27   0.7094   0.9025   2.0714   0.2617  -0.4287  -0.4621   0.00    0.0
2025/10/27 02:13:02.000   22.305749998  114.180124242    19.2552   4  28   0.7027   0.8927   2.0659   0.2357  -0.4036  -0.4449   0.00    0.0
2025/10/27 02:13:03.000   22.305745107  114.180122546    20.0877   4  28   0.7027   0.8925   2.0649   0.2354  -0.4020  -0.4440   0.00    0.0
2025/10/27 02:13:04.000   22.305739548  114.180119142    21.5697   4  29   0.6991   0.8903   2.0450   0.2593  -0.4242  -0.3873   0.00    0.0
2025/10/27 02:13:05.000   22.305731634  114.180116827    20.9966   4  27   0.7177   0.9014   2.0620   0.1918  -0.4015  -0.4429   0.00    0.0
2025/10/27 02:13:06.000   22.305723752  114.180104950    21.5461   4  28   0.7028   0.8925   2.0652   0.2349  -0.4019  -0.4443   0.00    0.0
2025/10/27 02:13:07.000   22.305718377  114.180093869    22.1938   4  28   0.6980   0.8432   2.0344   0.2007  -0.2410  -0.4212   0.00    0.0
2025/10/27 02:13:08.000   22.305712122  114.180086865    23.0487   4  28   0.6978   0.8425   2.0296   0.2001  -0.2319  -0.4196   0.00    0.0
2025/10/27 02:13:09.000   22.305709278  114.180099645    21.2632   4  29   0.6974   0.8113   2.0066   0.1855   0.1223  -0.4106   0.00    0.0
2025/10/27 02:13:10.000   22.305699210  114.180085763    22.6090   4  28   0.7013   0.8288   2.0639   0.2164  -0.2597  -0.4521   0.00    0.0
2025/10/27 02:13:11.000   22.305692890  114.180086378    21.0477   4  29   0.6975   0.8110   2.0120   0.1855   0.1190  -0.4125   0.00    0.0
2025/10/27 02:13:12.000   22.305688849  114.180066914    21.9159   4  27   0.7096   0.8563   2.0227  -0.0394   0.2983  -0.4464   0.00    0.0
2025/10/27 02:13:13.000   22.305684316  114.180072862    23.5727   4  29   0.6975   0.8112   2.0057   0.1839   0.1411  -0.4110   0.00    0.0
2025/10/27 02:13:14.000   22.305689925  114.180082025    25.1413   4  29   0.7050   0.8347   2.0541   0.1752   0.2725  -0.4564   0.00    0.0
2025/10/27 02:13:15.000   22.305671882  114.180084333    24.9594   4  29   0.7019   0.8176   2.0159   0.2052   0.0637  -0.4259   0.00    0.0
2025/10/27 02:13:16.000   22.305676410  114.180076464    24.4693   4  29   0.7018   0.8175   2.0089   0.2056   0.0305  -0.4236   0.00    0.0
2025/10/27 02:13:17.000   22.305672231  114.180076430    23.2070   4  28   0.7019   0.8210   2.0456   0.2076  -0.1680  -0.4288   0.00    0.0
2025/10/27 02:13:18.000   22.305685609  114.180065793    22.8907   4  28   0.7019   0.8210   2.0517   0.2077  -0.1723  -0.4300   0.00    0.0
2025/10/27 02:13:19.000   22.305695564  114.180060954    25.8609   4  29   0.7020   0.8286   2.0212   0.2012   0.1487  -0.4274   0.00    0.0
2025/10/27 02:13:20.000   22.305694903  114.180066722    25.1601   4  29   0.7020   0.8286   2.0167   0.2009   0.1552  -0.4264   0.00    0.0
2025/10/27 02:13:21.000   22.305691648  114.180066880    22.8058   4  29   0.7020   0.8286   2.0169   0.2009   0.1548  -0.4264   0.00    0.0
