     3.04           OBSERVATION DATA    M: Mixed            RINEX VERSION / TYPE
RTKCONV-EX 2.5.0                        20251109 043934 UTC PGM / RUN BY / DATE 
format: u-blox UBX                                          COMMENT             
log: D:\navigation 4203\test1.ubx                           COMMENT             
                                                            MARKER NAME         
                                                            MARKER NUMBER       
                                                            MARKER TYPE         
                                                            OBSERVER / AGENCY   
                                                            REC # / TYPE / VERS 
                                                            ANT # / TYPE        
 -2418206.7135  5385761.4277  2405769.6762                  APPROX POSITION XYZ 
        0.0000        0.0000        0.0000                  ANTENNA: DELTA H/E/N
G    8 C1C L1C D1C S1C C2X L2X D2X S2X                      SYS / # / OBS TYPES 
R    8 C1C L1C D1C S1C C2C L2C D2C S2C                      SYS / # / OBS TYPES 
E    8 C1X L1X D1X S1X C7X L7X D7X S7X                      SYS / # / OBS TYPES 
J    8 C1C L1C D1C S1C C2X L2X D2X S2X                      SYS / # / OBS TYPES 
S    4 C1C L1C D1C S1C                                      SYS / # / OBS TYPES 
C    8 C2I L2I D2I S2I C7I L7I D7I S7I                      SYS / # / OBS TYPES 
  2025    10    27    02    09   14.0040000     GPS         TIME OF FIRST OBS   
  2025    10    27    02    13   21.0040000     GPS         TIME OF LAST OBS    
G L1C                                                       SYS / PHASE SHIFT   
G L2X  0.00000                                              SYS / PHASE SHIFT   
R L1C                                                       SYS / PHASE SHIFT   
R L2C                                                       SYS / PHASE SHIFT   
E L1X  0.00000                                              SYS / PHASE SHIFT   
E L7X  0.00000                                              SYS / PHASE SHIFT   
J L1C                                                       SYS / PHASE SHIFT   
J L2X  0.00000                                              SYS / PHASE SHIFT   
S L1C                                                       SYS / PHASE SHIFT   
C L2I                                                       SYS / PHASE SHIFT   
C L7I                                                       SYS / PHASE SHIFT   
  7 R07  5 R09 -2 R10 -7 R16 -1 R21  4 R22 -3 R23  3        GLONASS SLOT / FRQ #
 C1C    0.000 C1P    0.000 C2C    0.000 C2P    0.000        GLONASS COD/PHS/BIS 
                                                            END OF HEADER       
> 2025 10 27 02 09 14.0040000  0 25                     
S29  38240145.868   200953321.9752        -92.334          44.000  
J03  37322284.558   196129920.7021       -231.017          38.000    37322285.565   152828515.410        -180.116          38.000  
J07  37835525.593   198827031.346         -91.631          38.000    37835522.007   154930138.861         -71.417          39.000  
G25  23640897.373   124233742.6371       2613.373          37.000                                                                  
G23  21518828.614   113082209.4051        521.080          40.000    21518824.780    88116027.838         405.867          37.000  
G24  23278810.724                1      -3118.050          29.000                                                                  
C13  37978345.104   197763205.781         801.664          42.000    37978338.375   152923027.339         619.744          41.000  
C16  37849544.633   197092510.773          40.061          43.000    37849537.930   152404403.014          30.952          45.000  
C23  23475496.595   122243075.3151        685.757          47.000                                                                  
C27  26112586.079   135975086.389       -2297.552          43.000                                                                  
C38  37355487.482   194519831.6901        395.566          38.000                                                                  
C06  37446604.008   194994294.0271        235.294          42.000    37446591.115   150781901.9311        181.848          43.000  
R09  21164915.508   113019467.0371       1529.367          45.000    21164913.904    87904033.029        1189.767          41.000  
R21  23760488.575   127147169.9101      -3662.640          45.000    23760498.314    98892341.8191      -2849.241          33.000  
G12  24108821.427   126692737.5991       1309.338          41.000    24108899.140                        1019.471          35.000  
G18  23198570.112   121909296.828       -2812.044          45.000    23198568.253    94994233.097       -2191.377          42.000  
G10  23627070.027   124161092.165        2635.510          43.000    23627067.719    96748999.490        2053.834          36.000  
S28  38657037.177   203144102.640         -88.833          38.000  
S37  37835521.292   198827006.0802        -92.027          42.000  
C32  24983015.526   130093116.7231       1296.191          42.000                                                                  
C39  37310564.658   194285904.285        -117.943          45.000                                                                  
G28  24709823.275                        2830.795          27.000    24709851.078                        2205.410          30.000  
E29  25924698.390   136235208.613        -847.299          40.000                                                                  
E27  27752085.790   145838180.985         908.185          35.000                                                                  
C09                                                                  38609517.839   155464524.233         295.747          40.000  
> 2025 10 27 02 09 15.0040000  0 25                     
S29  38240163.290   200953413.1963        -91.644          42.000  
J03  37322328.433   196130151.462        -230.718          40.000    37322329.449   152828695.146        -179.752          39.000  
J07  37835542.977   198827123.071         -91.570          39.000    37835539.469   154930210.334         -71.538          40.000  
G25  23640399.892   124231128.745        2613.703          36.000                                                                  
G23  21518729.355   113081687.955         521.251          40.000    21518725.652    88115621.540         406.314          37.000  
G24  23279403.930   122334093.2641      -3117.639          35.000                                                                  
C13  37978191.114   197762403.818         801.979          42.000    37978184.395   152922407.182         620.104          43.000  
C16  37849536.686   197092470.226          40.625          43.000    37849530.200   152404371.656          31.128          45.000  
C23  23475364.956   122242389.383         685.697          46.000                                                                  
C27  26113027.103   135977383.377       -2297.047          43.000                                                                  
C38  37355411.364   194519435.432         396.341          38.000                                                                  
C06  37446558.870   194994058.297         235.494          42.000    37446545.857   150781719.628         182.371          43.000  
R09  21164629.103   113017937.543        1529.123          44.000    21164627.449    87902843.444        1189.306          39.000  
R21  23761172.849   127150832.027       -3662.091          45.000    23761182.324    98895190.083       -2848.448          34.000  
G12  24108572.056   126691427.802        1309.410          37.000    24108577.975    98720890.340        1020.536          36.000  
G18  23199105.111   121912108.750       -2812.143          44.000    23199103.515    94996424.212       -2191.621          40.000  
G10  23626568.407   124158456.177        2635.620          41.000    23626566.009    96746945.531        2053.609          37.000  
S28  38657054.046   203144190.921         -88.609          38.000  
S37  37835538.841   198827097.8042        -91.798          42.000  
C32  24982766.478   130091819.946        1296.570          41.000                                                                  
C39  37310587.223   194286021.654        -117.297          45.000                                                                  
G28  24709281.868                        2828.927          25.000    24709312.343   101180374.623        2205.956          31.000  
E29  25924857.816   136236055.477        -846.885          39.000                                                                  
E27  27751912.970   145837272.616         908.415          34.000                                                                  
C09                                                                  38609444.274   155464227.919         296.250          40.000  
> 2025 10 27 02 09 16.0040000  0 25                     
S29  38240180.923   200953505.862         -92.938          42.000  
J03  37322372.541   196130383.219        -232.160          40.000    37322373.575   152828875.735        -180.898          38.000  
J07  37835560.512   198827215.725         -93.029          39.000    37835557.084   154930282.535         -72.495          39.000  
G25  23639902.704   124228515.989        2612.698          36.000                                                                  
G23  21518630.375   113081167.924         519.479          40.000    21518626.593    88115216.275         404.876          34.000  
G24  23279997.369   122337212.400       -3119.966          35.000                                                                  
C13  37978037.230   197761602.747         800.708          43.000    37978030.582   152921787.743         619.419          42.000  
C16  37849529.265   197092430.748          39.083          43.000    37849522.599   152404341.126          30.325          44.000  
C23  23475233.476   122241704.851         683.898          46.000                                                                  
C27  26113468.596   135979681.261       -2298.087          43.000                                                                  
C38  37355335.345   194519040.143         394.676          38.000                                                                  
C06  37446513.673   194993823.590         234.409          42.000    37446500.813   150781538.163         181.167          42.000  
R09  21164343.039   113016409.768        1526.936          44.000    21164341.327    87901655.164        1187.672          36.000  
R21  23761857.317   127154495.212       -3663.604          44.000    23761866.795    98898039.190       -2849.395          32.000  
G12  24108322.977   126690119.413        1308.089          37.000    24108321.989    98719870.798        1019.657          36.000  
G18  23199640.384   121914921.931       -2813.564          44.000    23199638.913    94998616.287       -2192.344          38.000  
G10  23626067.047   124155821.251        2634.505          41.000    23626064.543    96744892.344        2052.659          35.000  
S28  38657071.095   203144280.178         -89.312          39.000  
S37  37835556.458   198827190.4522        -92.959          42.000  
C32  24982517.673   130090524.083        1295.532          40.000                                                                  
C39  37310609.963   194286140.088        -118.672          45.000                                                                  
G28  24708740.924                        2818.298          22.000    24708776.081   101178169.498        2205.081          31.000  
E29  25925019.919   136236903.254        -848.212          39.000                                                                  
E27  27751741.082   145836365.456         906.791          33.000                                                                  
C09                                                                  38609370.798   155463932.365         295.286          39.000  
> 2025 10 27 02 09 17.0040000  0 25                     
S29  38240198.562   200953598.652         -92.822          42.000  
J03  37322416.626   196130615.170        -232.159          40.000    37322417.699   152829056.480        -180.882          39.000  
J07  37835578.009   198827308.498         -92.698          39.000    37835574.727   154930354.831         -72.595          39.000  
G25  23639405.557   124225903.530        2612.839          36.000                                                                  
G23  21518531.573   113080648.489         518.862          40.000    21518527.648    88114811.553         404.008          35.000  
G24  23280590.863   122340331.878       -3119.783          34.000                                                                  
C13  37977883.505   197760801.822         801.231          43.000    37977876.825   152921168.435         619.369          42.000  
C16  37849521.744   197092391.519          39.255          43.000    37849515.060   152404310.797          30.280          45.000  
C23  23475102.237   122241020.955         683.570          46.000                                                                  
C27  26113910.003   135981979.281       -2298.120          43.000                                                                  
C38  37355259.355   194518645.093         394.780          37.000                                                                  
C06  37446468.744   194993589.168         234.553          43.000    37446455.756   150781356.893         181.075          44.000  
R09  21164057.077   113014882.883        1526.431          43.000    21164055.353    87900467.565        1187.431          37.000  
R21  23762541.960   127158158.666       -3663.510          45.000    23762551.162    98900888.507       -2848.808          33.000  
G12  24108074.013   126688811.564        1307.968          37.000    24108072.406    98718851.712        1019.056          36.000  
G18  23200175.753   121917735.599       -2813.912          44.000    23200174.426    95000808.745       -2192.667          39.000  
G10  23625565.717   124153186.587        2634.376          42.000    23625563.122    96742839.324        2052.882          36.000  
S28  38657088.082   203144369.589         -89.223          38.000  
S37  37835574.103   198827283.228         -92.648          42.000  
C32  24982268.904   130089228.315        1295.844          40.000                                                                  
C39  37310632.761   194286258.782        -118.711          45.000                                                                  
G28  24708199.169                        2831.981          18.000    24708238.237   101175964.769        2204.648          31.000  
E29  25925181.357   136237751.094        -847.935          39.000                                                                  
E27  27751568.670   145835458.695         906.794          33.000                                                                  
C09                                                                  38609297.469   155463637.030         295.438          40.000  
> 2025 10 27 02 09 18.0040000  0 25                     
S29  38240216.388   200953692.729         -94.281          42.000  
J03  37322461.118   196130848.519        -233.685          40.000    37322462.093   152829238.302        -182.111          39.000  
J07  37835595.980   198827402.599         -94.448          38.000    37835592.593   154930428.142         -73.757          39.000  
G25  23638908.616   124223292.636        2610.452          36.000                                                                  
G23  21518433.102   113080130.783         517.328          40.000    21518429.097    88114408.134         402.895          35.000  
G24  23281184.778   122343452.902       -3121.357          34.000                                                                  
C13  37977729.841   197760002.229         799.364          43.000    37977723.270   152920550.128         617.897          43.000  
C16  37849514.341   197092353.752          37.289          43.000    37849507.827   152404281.588          28.953          45.000  
C23  23474971.282   122240338.871         681.550          45.000                                                                  
C27  26114351.472   135984278.572       -2299.826          43.000                                                                  
C38  37355183.711   194518251.375         393.326          37.000                                                                  
C06  37446423.919   194993356.153         232.767          43.000    37446410.997   150781176.719         179.773          44.000  
R09  21163771.686   113013358.088        1524.047          43.000    21163769.738    87899281.624        1185.201          37.000  
R21  23763226.844   127161823.581       -3665.243          45.000    23763235.913    98903739.026       -2851.215          33.000  
G12  24107825.331   126687505.479        1305.401          37.000    24107823.563    98717833.958        1017.552          36.000  
G18  23200711.264   121920550.900       -2815.736          43.000    23200710.280    95003002.509       -2194.422          38.000  
G10  23625064.675   124150553.307        2632.841          42.000    23625062.009    96740787.435        2051.384          36.000  
S28  38657105.374   203144460.260         -91.270          38.000  
S37  37835591.967   198827377.303         -94.391          42.000  
C32  24982020.373   130087933.803        1294.116          40.000                                                                  
C39  37310655.841   194286378.891        -120.642          45.000                                                                  
E29  25925342.984   136238600.207        -849.258          40.000                                                                  
E27  27751396.501   145834553.589         904.738          33.000                                                                  
C09                                                                  38609224.379   155463342.785         294.060          40.000  
G28                                                                  24707700.203   101173761.257        2202.939          31.000  
> 2025 10 27 02 09 19.0040000  0 25                     
S29  38240234.365   200953787.196         -93.793          42.000  
J03  37322505.667   196131082.358        -233.456          40.000    37322506.608   152829420.498        -181.525          39.000  
J07  37835613.989   198827497.018         -93.684          38.000    37835610.559   154930501.748         -73.441          39.000  
G25  23638411.819   124220682.334        2610.722          36.000                                                                  
G23  21518334.753   113079613.993         517.221          40.000    21518330.867    88114005.425         402.936          36.000  
G24  23281778.846   122346574.582       -3121.077          35.000                                                                  
C13  37977576.353   197759203.049         799.678          43.000    37977569.774   152919932.137         618.530          43.000  
C16  37849507.434   197092316.501          37.818          43.000    37849500.629   152404252.787          29.103          45.000  
C23  23474840.580   122239657.686         681.621          46.000                                                                  
C27  26114793.043   135986578.263       -2299.077          43.000                                                                  
C38  37355108.319   194517858.173         393.766          37.000                                                                  
C06  37446379.207   194993123.698         233.112          42.000    37446366.383   150780996.960         180.071          44.000  
R09  21163486.362   113011834.433        1523.683          43.000    21163484.384    87898096.550        1185.417          37.000  
R21  23763911.812   127165489.027       -3665.170          45.000    23763920.748    98906589.909       -2850.347          33.000  
G12  24107576.818   126686200.189        1305.904          37.000    24107575.152    98716816.847        1017.737          36.000  
G18  23201247.053   121923366.975       -2815.664          43.000    23201246.251    95005196.822       -2194.280          39.000  
G10  23624563.757   124147920.559        2633.428          42.000    23624560.941    96738735.933        2051.984          36.000  
S28  38657122.621   203144551.237         -90.668          39.000  
S37  37835609.857   198827471.774         -93.913          42.000  
C32  24981771.969   130086639.636        1294.714          40.000                                                                  
C39  37310679.038   194286499.528        -120.172          45.000                                                                  
E29  25925504.604   136239449.691        -848.935          39.000                                                                  
E27  27751224.158   145833649.197         904.703          34.000                                                                  
C09                                                                  38609151.413   155463048.960         294.016          40.000  
G28                                                                  24707162.386   101171558.327        2202.551          31.000  
> 2025 10 27 02 09 20.0040000  0 25                     
S29  38240252.170   200953880.848         -93.695          42.000  
J03  37322550.187   196131315.468        -233.262          40.000    37322550.979   152829602.156        -181.539          39.000  
J07  37835631.856   198827590.684         -93.467          39.000    37835628.411   154930574.707         -72.909          40.000  
G25  23637914.971   124218071.443        2611.263          36.000    23637919.841    96793329.974        2034.319          30.000  
G23  21518236.363   113079096.848         516.658          40.000    21518232.463    88113602.446         402.875          36.000  
G24  23282372.662   122349695.684       -3121.770          34.000                                                                  
C13  37977422.719   197758403.067         800.020          43.000    37977416.151   152919313.566         618.500          43.000  
C16  37849499.867   197092278.594          37.832          43.000    37849493.288   152404223.468          29.149          45.000  
C23  23474709.683   122238976.206         681.101          46.000                                                                  
C27  26115234.439   135988877.135       -2298.972          43.000                                                                  
C38  37355032.635   194517464.259         393.773          38.000                                                                  
C06  37446334.536   194992890.575         233.058          43.000    37446321.628   150780816.683         180.182          44.000  
R09  21163200.981   113010310.723        1523.315          44.000    21163199.031    87896911.475        1184.718          37.000  
R21  23764596.668   127169153.719       -3664.920          45.000    23764605.500    98909440.251       -2850.500          33.000  
G12  24107328.291   126684894.509        1305.481          37.000    24107327.009    98715799.447        1016.840          36.000  
G18  23201782.688   121926182.564       -2815.849          43.000    23201782.097    95007390.765       -2193.897          39.000  
G10  23624062.750   124145287.130        2633.271          42.000    23624059.783    96736683.908        2052.060          36.000  
S28  38657139.753   203144641.422         -90.614          39.000  
S37  37835627.720   198827565.420         -93.648          42.000  
C32  24981523.555   130085344.655        1294.720          40.000                                                                  
C39  37310701.798   194286619.489        -120.027          45.000                                                                  
E29  25925665.987   136240298.337        -848.462          39.000                                                                  
E27  27751052.214   145832744.288         904.937          34.000                                                                  
C09                                                                  38609078.322   155462754.590         294.370          40.000  
G28                                                                  24706624.460   101169355.002        2202.859          31.000  
> 2025 10 27 02 09 21.0040000  0 25                     
S29  38240269.962   200953974.699         -93.561          43.000  
J03  37322594.577   196131548.908        -233.728          41.000    37322595.358   152829784.033        -181.618          40.000  
J07  37835649.791   198827684.549         -93.388          39.000    37835646.346   154930647.843         -73.044          41.000  
G25  23637418.193   124215460.932        2610.701          35.000    23637419.531    96791295.830        2033.713          31.000  
G23  21518138.052   113078580.379         516.187          40.000    21518134.223    88113200.026         401.936          37.000  
G24  23282966.647   122352817.247       -3122.117          35.000    23282957.456                       -2433.080          27.000  
C13  37977269.032   197757603.370         799.655          43.000    37977262.629   152918695.173         618.341          43.000  
C16  37849492.565   197092241.038          37.494          43.000    37849486.033   152404194.413          29.104          45.000  
C23  23474578.934   122238295.435         680.479          45.000                                                                  
C27  26115675.993   135991176.213       -2298.939          44.000                                                                  
C38  37354957.106   194517070.650         393.305          38.000                                                                  
C06  37446289.882   194992657.808         232.637          43.000    37446276.964   150780636.675         180.023          44.000  
R09  21162916.008   113008788.047        1522.356          43.000    21162913.860    87895727.153        1184.081          38.000  
R21  23765281.642   127172818.764       -3665.055          45.000    23765290.407    98912290.792       -2850.182          33.000  
G12  24107079.934   126683589.494        1304.779          37.000    24107078.515    98714782.547        1016.566          36.000  
G18  23202318.558   121928998.715       -2816.108          43.000    23202318.020    95009585.179       -2194.599          40.000  
G10  23623561.756   124142654.027        2633.074          42.000    23623558.786    96734632.166        2051.845          36.000  
S28  38657156.944   203144731.787         -90.193          38.000  
G28  24706080.656                        2832.492          29.000    24706086.391   101167152.048        2202.489          32.000  
S37  37835645.577   198827659.294         -93.797          42.000  
C32  24981274.840   130084049.850        1294.629          40.000                                                                  
C39  37310724.900   194286739.798        -120.398          45.000                                                                  
E29  25925827.586   136241147.139        -848.532          39.000                                                                  
E27  27750880.456   145831839.859         904.427          34.000                                                                  
C09                                                                  38609005.297   155462460.508         293.983          40.000  
> 2025 10 27 02 09 22.0040000  0 25                     
S29  38240287.774   200954068.570         -93.683          43.000  
J03  37322639.065   196131782.397        -233.520          41.000    37322639.719   152829965.990        -182.083          42.000  
J07  37835667.664   198827778.452         -94.097          39.000    37835664.270   154930720.981         -73.145          43.000  
G25  23636921.419   124212850.670        2609.935          35.000    23636920.774    96789261.836        2033.933          31.000  
G23  21518039.918   113078064.386         515.758          40.000    21518036.029    88112797.921         401.604          36.000  
G24  23283560.626   122355939.101       -3121.426          34.000    23283554.960    95342264.3561      -2433.115          31.000  
C13  37977115.293   197756803.673         799.518          43.000    37977109.095   152918076.814         618.229          42.000  
C16  37849485.462   197092203.605          37.366          43.000    37849478.868   152404165.492          28.823          45.000  
C23  23474448.321   122237615.198         679.668          46.000                                                                  
C27  26116117.561   135993475.301       -2299.032          44.000                                                                  
C38  37354881.554   194516677.075         393.482          38.000                                                                  
C06  37446245.301   194992425.175         232.474          43.000    37446232.431   150780456.805         179.857          44.000  
R09  21162631.033   113007266.088        1521.583          42.000    21162628.854    87894543.417        1183.487          38.000  
R21  23765966.536   127176483.954       -3665.238          45.000    23765975.199    98915141.532       -2851.425          34.000  
G12  24106831.580   126682284.896        1304.473          36.000    24106830.092    98713765.949        1016.019          38.000  
G18  23202854.454   121931815.232       -2816.789          43.000    23202854.023    95011779.833       -2194.637          40.000  
G10  23623060.804   124140021.043        2632.942          42.000    23623057.602    96732580.487        2051.791          38.000  
S28  38657174.122   203144822.209         -90.526          39.000  
G28  24705546.424   129828522.5283       2826.415          30.000    24705548.598   101164949.351        2202.218          33.000  
S37  37835663.474   198827753.173         -93.820          43.000  
C32  24981026.347   130082755.009        1294.818          40.000                                                                  
C39  37310748.065   194286860.243        -120.585          45.000                                                                  
E29  25925988.954   136241995.943        -848.936          39.000                                                                  
E27  27750708.867   145830935.837         903.804          35.000                                                                  
C09                                                                  38608932.332   155462166.518         293.823          40.000  
> 2025 10 27 02 09 23.0040000  0 25                     
S29  38240305.907   200954163.503         -94.391          42.000  
J03  37322683.820   196132017.088        -234.469          41.000    37322684.222   152830148.842        -182.396          41.000  
J07  37835685.770   198827873.388         -94.453          39.000    37835682.410   154930794.954         -73.724          42.000  
G25  23636424.797   124210241.686        2609.506          35.000    23636421.873    96787228.874        2032.951          31.000  
G23  21517942.031   113077549.957         514.606          40.000    21517938.043    88112397.073         400.504          36.000  
G24  23284154.909   122359059.7953      -3124.371          34.000    23284153.851    95344697.974       -2433.200          30.000  
C13  37976961.920   197756005.069         798.865          43.000    37976955.749   152917459.273         617.757          42.000  
C16  37849478.374   197092167.419          36.365          43.000    37849471.907   152404137.496          28.316          45.000  
C23  23474317.914   122236936.515         679.045          46.000                                                                  
C27  26116559.251   135995775.465       -2299.742          43.000                                                                  
C38  37354806.129   194516284.694         392.631          38.000                                                                  
C06  37446200.955   194992193.746         231.816          42.000    37446188.008   150780277.854         179.205          44.000  
R09  21162346.445   113005746.011        1520.191          42.000    21162344.161    87893361.139        1182.311          38.000  
R21  23766651.682   127180150.393       -3665.895          45.000    23766660.141    98917993.173       -2851.274          34.000  
G12  24106583.515   126680981.759        1303.447          36.000    24106582.055    98712750.542        1015.709          37.000  
G18  23203390.534   121934633.138       -2817.588          42.000    23203390.277    95013975.600       -2195.248          39.000  
G10  23622560.059   124137389.248        2632.212          42.000    23622556.659    96730529.750        2050.850          37.000  
S28  38657191.550   203144913.779         -91.656          39.000  
G28  24705004.186   129825697.1132       2826.295          31.000    24705010.816   101162747.755        2201.192          33.000  
S37  37835681.587   198827848.097         -94.353          43.000  
C32  24980777.770   130081461.217        1294.226          40.000                                                                  
C39  37310771.594   194286981.877        -121.284          45.000                                                                  
E29  25926150.674   136242845.768        -849.452          39.000                                                                  
E27  27750537.218   145830033.191         902.490          35.000                                                                  
C09                                                                  38608859.494   155461873.466         293.216          40.000  
> 2025 10 27 02 09 24.0040000  0 25                     
S29  38240323.930   200954258.263         -94.446          42.000  
J03  37322728.601   196132251.667        -234.168          41.000    37322728.854   152830331.647        -182.816          41.000  
J07  37835703.802   198827968.130         -94.806          39.000    37835700.518   154930868.789         -73.816          42.000  
G25  23635928.308   124207632.735        2608.883          35.000    23635925.234    96785195.930        2033.588          30.000  
G23  21517844.032   113077035.813         513.786          40.000    21517840.122    88111996.396         400.833          36.000  
G24  23284749.144   122362183.0422      -3124.117          34.000    23284749.120    95347131.660       -2433.923          30.000  
C13  37976808.522   197755206.293         798.763          43.000    37976802.376   152916841.611         617.573          42.000  
C16  37849471.542   197092131.178          36.144          43.000    37849464.958   152404109.477          28.107          45.000  
C23  23474187.571   122236258.186         678.322          46.000                                                                  
C27  26117000.958   135998075.444       -2300.145          43.000                                                                  
C38  37354730.852   194515892.228         392.124          38.000                                                                  
C06  37446156.616   194991962.294         231.201          42.000    37446143.670   150780098.868         178.981          44.000  
R09  21162061.965   113004226.574        1518.842          42.000    21162059.656    87892179.338        1181.414          38.000  
R21  23767336.852   127183816.781       -3666.363          45.000    23767345.118    98920844.796       -2851.534          34.000  
G12  24106335.547   126679678.914        1302.403          36.000    24106334.064    98711735.326        1015.046          37.000  
G18  23203926.627   121937451.262       -2818.378          42.000    23203926.741    95016171.543       -2195.740          39.000  
G10  23622059.313   124134757.434        2631.871          42.000    23622055.843    96728478.990        2050.690          36.000  
S28  38657208.956   203145005.170         -91.938          39.000  
G28  24704462.241   129822871.8552       2824.898          31.000    24704472.794   101160546.249        2200.896          32.000  
S37  37835699.692   198827942.860         -94.697          43.000  
C32  24980529.440   130080167.251        1293.677          40.000                                                                  
C39  37310794.814   194287103.478        -121.632          45.000                                                                  
E29  25926312.133   136243695.355        -849.194          39.000                                                                  
E27  27750366.214   145829130.620         902.924          34.000                                                                  
C09                                                                  38608786.707   155461580.383         292.955          40.000  
> 2025 10 27 02 09 25.0040000  0 25                     
S29  38240341.939   200954352.969         -95.020          42.000  
J03  37322773.336   196132486.334        -235.205          42.000    37322773.637   152830514.487        -183.134          41.000  
J07  37835721.866   198828062.821         -94.387          39.000    37835718.610   154930942.590         -74.121          42.000  
G25  23635431.828   124205024.020        2608.184          35.000    23635427.789    96783163.157        2032.813          30.000  
G23  21517746.294   113076522.094         513.104          40.000    21517742.402    88111596.103         400.039          37.000  
G24  23285343.601   122365305.9051      -3124.009          33.000    23285343.790    95349565.619       -2435.288          30.000  
C13  37976655.190   197754407.509         798.366          43.000    37976648.954   152916223.930         617.366          42.000  
C16  37849464.577   197092095.030          36.044          43.000    37849458.005   152404081.533          27.680          45.000  
C23  23474057.368   122235580.328         677.440          46.000                                                                  
C27  26117442.558   136000375.366       -2300.289          43.000                                                                  
C38  37354655.434   194515499.786         392.342          38.000                                                                  
C06  37446112.485   194991730.931         230.900          42.000    37446099.219   150779919.966         178.627          44.000  
R09  21161777.553   113002707.804        1518.230          42.000    21161775.233    87890998.070        1180.790          38.000  
R21  23768022.100   127187483.246       -3666.861          45.000    23768030.170    98923696.473       -2852.344          34.000  
G12  24106087.661   126678376.431        1302.621          36.000    24106086.100    98710720.397        1014.753          37.000  
G18  23204462.851   121940269.658       -2818.870          41.000    23204463.157    95018367.713       -2196.567          39.000  
G10  23621558.582   124132125.671        2631.376          42.000    23621555.019    96726428.235        2051.105          36.000  
S28  38657226.347   203145096.497         -91.844          39.000  
G28  24703925.078   129820046.8592       2824.633          32.000    24703935.104   101158344.927        2200.808          31.000  
S37  37835717.770   198828037.569         -95.096          43.000  
C32  24980280.841   130078873.169        1293.933          40.000                                                                  
C39  37310818.135   194287225.157        -122.150          45.000                                                                  
E29  25926473.874   136244544.931        -849.788          39.000                                                                  
E27  27750194.631   145828228.381         901.625          35.000                                                                  
C09                                                                  38608713.929   155461287.367         292.528          40.000  
> 2025 10 27 02 09 26.0040000  0 25                     
S29  38240360.120   200954448.155         -95.489          42.000  
J03  37322818.167   196132721.519        -235.872          41.000    37322818.399   152830697.763        -183.805          41.000  
J07  37835740.038   198828158.016         -95.510          39.000    37835736.755   154931016.742         -74.533          42.000  
G25  23634935.471   124202415.906        2607.520          35.000    23634932.159    96781130.943        2030.027          30.000  
G23  21517648.768   113076009.304         512.049          40.000    21517644.749    88111196.553         398.769          36.000  
G24  23285938.101   122368430.066       -3124.158          32.000    23285939.871    95351999.897       -2434.952          29.000  
C13  37976501.833   197753609.182         797.641          43.000    37976495.696   152915606.604         617.033          42.000  
C16  37849457.656   197092059.498          34.774          43.000    37849451.277   152404054.047          27.039          45.000  
C23  23473927.522   122234903.440         675.962          46.000                                                                  
C27  26117884.278   136002675.758       -2301.011          43.000                                                                  
C38  37354580.272   194515107.914         391.489          38.000                                                                  
C06  37446068.284   194991500.145         230.378          43.000    37446054.962   150779741.521         178.061          44.000  
R09  21161493.428   113001190.273        1516.881          42.000    21161491.034    87889817.789        1179.744          38.000  
R21  23768707.400   127191150.251       -3667.429          45.000    23768715.293    98926548.579       -2852.607          35.000  
G12  24105839.869   126677074.878        1300.419          36.000    24105838.323    98709706.165        1013.366          37.000  
G18  23204999.244   121943088.896       -2820.161          41.000    23204999.674    95020564.513       -2197.658          39.000  
G10  23621057.976   124129494.505        2630.628          42.000    23621054.343    96724377.970        2050.143          36.000  
S28  38657243.783   203145188.214         -92.185          39.000  
G28  24703388.634   129817222.1451       2823.364          32.000    24703397.430   101156144.254        2200.107          31.000  
S37  37835735.936   198828132.739         -95.656          43.000  
C32  24980032.416   130077579.537        1293.103          40.000                                                                  
C39  37310841.720   194287347.424        -122.761          45.000                                                                  
E29  25926635.622   136245394.878        -850.410          39.000                                                                  
E27  27750022.984   145827326.890         900.689          35.000                                                                  
C09                                                                  38608641.279   155460994.808         291.950          40.000  
> 2025 10 27 02 09 27.0040000  0 26                     
S29  38240378.393   200954543.853         -95.782          42.000  
J03  37322862.967   196132957.316        -236.005          41.000    37322863.307   152830881.492        -183.856          41.000  
J07  37835758.251   198828253.710         -95.655          39.000    37835755.083   154931091.306         -74.735          41.000  
G25  23634439.193   124199808.602        2607.107          34.000    23634435.787    96779099.148        2032.744          31.000  
G23  21517551.424   113075497.545         511.258          40.000    21517547.376    88110797.776         398.605          36.000  
G24  23286532.748   122371555.074       -3126.587          32.000    23286535.280    95354434.919       -2435.475          28.000  
C13  37976348.559   197752811.419         797.644          42.000    37976342.508   152914989.739         616.732          41.000  
C16  37849451.246   197092024.609          34.658          43.000    37849444.686   152404027.080          26.802          45.000  
C23  23473797.824   122234227.583         675.403          45.000                                                                  
C27  26118326.240   136004976.664       -2301.185          43.000                                                                  
C38  37354505.157   194514716.641         391.182          38.000                                                                  
C06  37446024.140   194991270.075         229.777          43.000    37446010.784   150779563.602         177.775          44.000  
R09  21161209.372   112999674.073        1515.596          42.000    21161207.112    87888638.506        1178.973          38.000  
R21  23769392.776   127194817.883       -3667.647          45.000    23769400.390    98929401.151       -2852.759          34.000  
R22  22944105.157   122477190.4641       -684.305          31.000                                                                  
G12  24105592.302   126675774.263        1300.118          39.000    24105590.786    98708692.689        1013.072          37.000  
G18  23205535.783   121945908.991       -2820.517          41.000    23205536.479    95022762.001       -2198.163          39.000  
G10  23620557.453   124126863.980        2630.518          42.000    23620553.793    96722328.242        2049.489          36.000  
S28  38657261.352   203145280.460         -92.325          38.000  
G28  24702851.683   129814398.763        2823.194          33.000    24702859.824   101153944.205        2199.534          31.000  
S37  37835754.207   198828228.439         -95.868          43.000  
C32  24979784.064   130076286.416        1292.767          40.000                                                                  
C39  37310865.348   194287470.352        -123.160          45.000                                                                  
E29  25926797.414   136246245.346        -850.441          39.000                                                                  
E27  27749849.539   145826426.270         900.221          36.000                                                                  
C09                                                                  38608568.729   155460702.771         291.789          40.000  
> 2025 10 27 02 09 28.0040000  0 27                     
S29  38240396.605   200954639.986         -96.167          42.000  
J03  37322907.975   196133193.674        -236.517          40.000    37322908.267   152831065.658        -184.069          41.000  
J07  37835776.644   198828349.851         -96.204          39.000    37835773.435   154931166.218         -74.979          41.000  
G25  23633943.160   124197201.932        2606.991          34.000    23633939.785    96777068.034        2030.534          31.000  
G23  21517454.233   113074986.662         510.689          40.000    21517450.166    88110399.688         397.673          36.000  
G24  23287127.476   122374680.596       -3125.650          32.000    23287130.145    95356870.436       -2435.986          27.000  
C13  37976195.542   197752014.130         797.392          42.000    37976189.418   152914373.218         616.576          41.000  
C16  37849444.498   197091990.340          34.044          43.000    37849438.061   152404000.554          26.516          45.000  
C23  23473668.299   122233552.663         674.808          46.000                                                                  
C27  26118768.145   136007278.000       -2301.281          43.000                                                                  
C38  37354430.181   194514325.908         390.502          38.000                                                                  
C06  37445980.116   194991040.583         229.197          43.000    37445966.733   150779386.130         177.489          44.000  
R09  21160925.609   112998159.054        1514.543          42.000    21160923.336    87887460.186        1177.962          38.000  
R21  23770078.157   127198486.120       -3668.361          45.000    23770085.757    98932254.236       -2853.461          34.000  
R10  23523092.221                        4042.047          27.000                                                                  
R22  22944233.590   122477875.577        -685.921          31.000                                                                  
G12  24105344.884   126674474.501        1299.268          36.000    24105343.338    98707679.873        1012.430          38.000  
G18  23206072.471   121948729.873       -2821.136          40.000    23206073.405    95024960.043       -2198.111          39.000  
G10  23620057.033   124124234.019        2630.048          43.000    23620053.161    96720278.898        2049.286          36.000  
S28  38657278.893   203145373.122         -92.969          38.000  
G28  24702314.717   129811576.106        2822.815          34.000    24702322.400   101151744.701        2199.565          31.000  
S37  37835772.505   198828324.561         -96.183          43.000  
C32  24979535.720   130074993.688        1292.523          41.000                                                                  
C39  37310889.178   194287593.850        -123.658          45.000                                                                  
E29  25926959.487   136247096.213        -850.939          39.000                                                                  
E27  27749676.469   145825526.389         899.565          36.000                                                                  
C09                                                                  38608496.296   155460411.165         291.267          40.000  
> 2025 10 27 02 09 29.0040000  0 27                     
S29  38240414.946   200954736.310         -96.899          42.000  
J03  37322953.021   196133430.298        -237.326          40.000    37322953.327   152831250.037        -184.667          40.000  
J07  37835794.897   198828446.149         -96.969          40.000    37835791.759   154931241.263         -75.425          41.000  
G25  23633447.252   124194595.714        2605.481          35.000    23633443.793    96775037.170        2030.650          31.000  
G23  21517357.151   113074476.471         509.521          39.000    21517353.134    88110002.131         397.054          35.000  
G24  23287722.265   122377806.661       -3126.540          33.000    23287725.249    95359306.266       -2436.052          26.000  
C13  37976042.547   197751217.059         796.783          42.000    37976036.294   152913756.885         616.089          42.000  
C16  37849437.900   197091956.380          33.274          43.000    37849431.533   152403974.293          25.832          45.000  
C23  23473538.880   122232878.450         673.426          45.000                                                                  
C27  26119210.106   136009579.535       -2302.257          44.000                                                                  
C38  37354355.092   194513935.478         389.488          38.000                                                                  
C06  37445936.156   194990811.400         228.433          43.000    37445922.767   150779208.919         176.780          44.000  
R09  21160642.071   112996645.018        1513.110          42.000    21160639.731    87886282.589        1177.056          38.000  
R21  23770763.784   127202154.700       -3669.362          45.000    23770771.244    98935107.555       -2854.092          35.000  
R10  23522331.156                        4038.362          25.000                                                                  
R22  22944362.177   122478561.564        -687.065          31.000    22944381.132                        -536.154          26.000  
G12  24105097.658   126673175.324        1298.451          37.000    24105096.021    98706667.534        1011.820          38.000  
G18  23206609.256   121951551.279       -2822.339          40.000    23206610.358    95027158.551       -2198.972          39.000  
G10  23619556.674   124121604.367        2629.245          43.000    23619552.745    96718229.821        2048.824          36.000  
S28  38657296.539   203145465.976         -92.991          38.000  
G28  24701777.998   129808753.997        2821.174          33.000    24701785.363   101149545.706        2197.705          31.000  
S37  37835790.753   198828420.872         -96.848          43.000  
C32  24979287.550   130073701.119        1291.956          41.000                                                                  
C39  37310912.892   194287717.674        -124.627          45.000                                                                  
E29  25927121.267   136247947.226        -851.477          39.000                                                                  
E27  27749503.604   145824627.009         898.965          36.000    27749501.625   111735743.810         688.791          43.000  
C09                                                                  38608423.927   155460119.794         291.235          40.000  
> 2025 10 27 02 09 30.0040000  0 27                     
S29  38240433.503   200954832.901         -97.046          43.000  
J03  37322998.209   196133667.300        -237.402          40.000    37322998.347   152831434.711        -185.047          40.000  
J07  37835813.383   198828542.753         -96.951          40.000    37835810.127   154931316.540         -75.605          41.000  
G25  23632951.293   124191989.923        2604.802          35.000    23632948.036    96773006.642        2031.254          31.000  
G23  21517260.270   113073967.026         508.804          40.000    21517256.148    88109605.155         396.573          35.000  
G24  23288317.245   122380933.213       -3126.523          33.000    23288320.500                       -2436.562          26.000  
C13  37975889.482   197750420.306         796.351          43.000    37975883.311   152913140.771         615.726          42.000  
C16  37849431.797   197091922.830          33.132          43.000    37849425.165   152403948.356          25.685          45.000  
C23  23473409.514   122232205.036         672.653          46.000                                                                  
C27  26119652.221   136011881.332       -2302.233          44.000                                                                  
C38  37354280.097   194513545.347         389.660          38.000                                                                  
C06  37445892.190   194990582.624         228.224          43.000    37445878.831   150779032.012         176.730          44.000  
R09  21160358.827   112995132.040        1512.256          42.000    21160356.393    87885105.826        1176.204          38.000  
R21  23771449.495   127205823.683       -3669.564          45.000    23771456.679    98937961.174       -2853.516          34.000  
R10  23521570.139                        4040.510          26.000                                                                  
R22  22944491.162   122479248.593        -687.613          31.000    22944508.187                        -534.169          26.000  
G12  24104850.503   126671876.865        1298.052          36.000    24104848.911    98705655.760        1011.267          38.000  
G18  23207146.173   121954373.311       -2822.550          40.000    23207147.474    95029357.558       -2199.588          39.000  
G10  23619056.446   124118975.133        2628.738          43.000    23619052.489    96716181.073        2048.201          36.000  
S28  38657314.252   203145559.083         -93.379          38.000  
G28  24701241.178   129805932.429        2820.586          33.000    24701248.151   101147347.089        2198.604          31.000  
S37  37835809.146   198828517.466         -96.851          43.000  
C32  24979039.262   130072408.798        1292.010          41.000                                                                  
C39  37310936.777   194287841.895        -124.660          45.000                                                                  
E29  25927282.840   136248798.481        -851.424          38.000                                                                  
E27  27749331.334   145823728.241         898.135          37.000    27749330.328   111735055.143         688.166          43.000  
C09                                                                  38608351.637   155459828.756         290.870          40.000  
> 2025 10 27 02 09 31.0040000  0 27                     
S29  38240451.965   200954929.763         -97.461          43.000  
J03  37323043.429   196133904.658        -237.877          39.000    37323043.713   152831619.650        -185.362          40.000  
J07  37835831.818   198828639.604         -97.366          39.000    37835828.667   154931392.001         -75.822          41.000  
G25  23632455.465   124189384.615        2604.339          36.000    23632452.495    96770976.614        2029.703          31.000  
G23  21517163.500   113073458.308         507.915          40.000    21517159.401    88109208.745         395.998          36.000  
G24  23288912.160   122384060.322       -3127.968          33.000    23288915.879    95364217.3011      -2437.148          27.000  
C13  37975736.562   197749623.822         795.760          43.000    37975730.361   152912524.872         615.346          42.000  
C16  37849425.195   197091889.699          32.494          43.000    37849418.788   152403922.730          25.129          45.000  
C23  23473280.301   122231532.391         671.776          46.000                                                                  
C27  26120094.384   136014183.388       -2302.548          44.000                                                                  
C38  37354205.143   194513155.591         389.274          39.000                                                                  
C06  37445848.209   194990354.280         227.789          43.000    37445834.968   150778855.451         176.046          44.000  
R09  21160075.722   112993620.108        1510.730          42.000    21160073.171    87883929.882        1175.272          38.000  
R21  23772135.103   127209493.081       -3670.117          45.000    23772142.306    98940815.156       -2854.897          34.000  
R10  23520809.566                        4040.935          26.000                                                                  
